{
  "data": [
    {
      "latitude": 31.759595,
      "longitude": 35.215315,
      "type": "locality",
      "name": "Jerusalem",
      "number": null,
      "postal_code": null,
      "street": null,
      "confidence": 0.6,
      "region": "Jerusalem",
      "region_code": "JM",
      "county": "Jerusalem",
      "locality": "Jerusalem",
      "administrative_area": null,
      "neighbourhood": null,
      "country": "Israel",
      "country_code": "ISR",
      "continent": "Asia",
      "label": "Jerusalem, Israel"
    },
    {
      "latitude": 31.788046,
      "longitude": 35.317215,
      "type": "county",
      "name": "Jerusalem",
      "number": null,
      "postal_code": null,
      "street": null,
      "confidence": 0.4,
      "region": "West Bank",
      "region_code": "WE",
      "county": "Jerusalem",
      "locality": null,
      "administrative_area": null,
      "neighbourhood": null,
      "country": "Palestine",
      "country_code": "PSE",
      "continent": "Asia",
      "label": "Jerusalem, WE, Palestine"
    },
    {
      "latitude": 35.24341,
      "longitude": -86.78444,
      "type": "locality",
      "name": "Jerusalem",
      "number": null,
      "postal_code": null,
      "street": null,
      "confidence": 0.6,
      "region": "Tennessee",
      "region_code": "TN",
      "county": "Lincoln County",
      "locality": "Jerusalem",
      "administrative_area": null,
      "neighbourhood": null,
      "country": "United States",
      "country_code": "USA",
      "continent": "North America",
      "label": "Jerusalem, TN, USA"
    },
    {
      "latitude": 17.5528,
      "longitude": 121.7031,
      "type": "locality",
      "name": "Jerusalem",
      "number": null,
      "postal_code": null,
      "street": null,
      "confidence": 0.6,
      "region": "Cagayan",
      "region_code": "CG",
      "county": "Enrile",
      "locality": "Jerusalem",
      "administrative_area": null,
      "neighbourhood": null,
      "country": "Philippines",
      "country_code": "PHL",
      "continent": "Asia",
      "label": "Jerusalem, CG, Philippines"
    },
    {
      "latitude": 30.97829,
      "longitude": -81.84567,
      "type": "locality",
      "name": "Jerusalem",
      "number": null,
      "postal_code": null,
      "street": null,
      "confidence": 0.6,
      "region": "Georgia",
      "region_code": "GA",
      "county": "Camden County",
      "locality": "Jerusalem",
      "administrative_area": null,
      "neighbourhood": null,
      "country": "United States",
      "country_code": "USA",
      "continent": "North America",
      "label": "Jerusalem, GA, USA"
    },
    {
      "latitude": 34.44176,
      "longitude": -84.58215,
      "type": "locality",
      "name": "Jerusalem",
      "number": null,
      "postal_code": null,
      "street": null,
      "confidence": 0.6,
      "region": "Georgia",
      "region_code": "GA",
      "county": "Pickens County",
      "locality": "Jerusalem",
      "administrative_area": null,
      "neighbourhood": null,
      "country": "United States",
      "country_code": "USA",
      "continent": "North America",
      "label": "Jerusalem, GA, USA"
    },
    {
      "latitude": 25.80907,
      "longitude": -103.35877,
      "type": "locality",
      "name": "Jerusalen",
      "number": null,
      "postal_code": null,
      "street": null,
      "confidence": 0.6,
      "region": "Durango",
      "region_code": "DUR",
      "county": "GÃ³mez Palacio",
      "locality": "Jerusalen",
      "administrative_area": null,
      "neighbourhood": null,
      "country": "Mexico",
      "country_code": "MEX",
      "continent": "North America",
      "label": "Jerusalen, DUR, Mexico"
    },
    {
      "latitude": 10.7,
      "longitude": -71.63333,
      "type": "locality",
      "name": "Jerusalem",
      "number": null,
      "postal_code": null,
      "street": null,
      "confidence": 0.6,
      "region": "Zulia",
      "region_code": "ZU",
      "county": "Maracaibo",
      "locality": "Jerusalem",
      "administrative_area": null,
      "neighbourhood": null,
      "country": "Venezuela",
      "country_code": "VEN",
      "continent": "South America",
      "label": "Jerusalem, ZU, Venezuela"
    },
    {
      "latitude": 34.70509,
      "longitude": -87.22696,
      "type": "locality",
      "name": "Jerusalem",
      "number": null,
      "postal_code": null,
      "street": null,
      "confidence": 0.6,
      "region": "Alabama",
      "region_code": "AL",
      "county": "Lawrence County",
      "locality": "Jerusalem",
      "administrative_area": null,
      "neighbourhood": null,
      "country": "United States",
      "country_code": "USA",
      "continent": "North America",
      "label": "Jerusalem, AL, USA"
    },
    {
      "latitude": 16.17981,
      "longitude": -91.37958,
      "type": "locality",
      "name": "Jerusalen",
      "number": null,
      "postal_code": null,
      "street": null,
      "confidence": 0.6,
      "region": "Chiapas",
      "region_code": "CHP",
      "county": "Las Margaritas",
      "locality": "Jerusalen",
      "administrative_area": null,
      "neighbourhood": null,
      "country": "Mexico",
      "country_code": "MEX",
      "continent": "North America",
      "label": "Jerusalen, CHP, Mexico"
    }
  ]
}